{
  "hubs": [],
  "corridors": [],
  "stations": [
    {
      "name": "Cossim Thika Arcade-Station",
      "address": "Thika Arcade Mama Ngina Drive Ground Floor Thika town/Ngoingwa",
      "city": "Thika",
      "county": "Kiambu",
      "lat": -1.0332,
      "lon": 37.069,
      "phone": "0719226101",
      "hours": "",
      "type": "station",
      "status": "active",
      "shelf": true
    },
    {
      "name": "Cossim Thika -Station",
      "address": "Makongeni, Ananas Station - Ananas mall, makongeni, Garissa Rd, Thika, 1st Floor Ananas mall",
      "city": "Thika",
      "county": "Kiambu",
      "lat": -1.0332,
      "lon": 37.069,
      "phone": "0797141180",
      "hours": "",
      "type": "station",
      "status": "active",
      "shelf": true
    },
    {
      "name": "Cossim Ongata Rongai-Station",
      "address": "Ongata Rongai North Masai lodge Tuktuk stage Paran Business Centre Stall No32",
      "city": "Rongai",
      "county": "Kajiado",
      "lat": -1.3879,
      "lon": 36.7473,
      "phone": "0748168481",
      "hours": "",
      "type": "station",
      "status": "active",
      "shelf": true
    },
    {
      "name": "Cossim Oyugis-Station",
      "address": "Rachuonyo county hospital opposite Blue pharmacy room no.2",
      "city": "Oyugis",
      "county": "Homa Bay",
      "lat": -0.5167,
      "lon": 34.7333,
      "phone": "0768530582",
      "hours": "",
      "type": "station",
      "status": "active",
      "shelf": false
    },
    {
      "name": "Cossim Nakuru-Station",
      "address": "Prime Plaza Mburu Gichua Road Nakuru Ground Floor office No 109 Nakuru CBD Nakuru Kenya",
      "city": "Nakuru",
      "county": "Nakuru",
      "lat": -0.3031,
      "lon": 36.08,
      "phone": "0798343793",
      "hours": "",
      "type": "station",
      "status": "active",
      "shelf": true
    },
    {
      "name": "Cossim Naivasha-Station",
      "address": "Cedar Complex,Opposite Naivasha County Referral Hospital Gate B. Room No. 6 Naivasha, Nakuru Kenya",
      "city": "Naivasha",
      "county": "Nakuru",
      "lat": -0.7176,
      "lon": 36.4331,
      "phone": "0790462805",
      "hours": "",
      "type": "station",
      "status": "active",
      "shelf": true
    },
    {
      "name": "Cossim Fedha-Station",
      "address": "Aviators Business Park 1st Floor Room No.B22 Next Nyayo Estate Gate B",
      "city": "Nairobi",
      "county": "Nairobi",
      "lat": -1.3644,
      "lon": 36.8673,
      "phone": "0715432281",
      "hours": "",
      "type": "station",
      "status": "active",
      "shelf": true
    },
    {
      "name": "Cossim Gateway-Station",
      "address": "Airport North Road Gateway Mall 3rd Floor, Syokimau/Mlolongo/Greatwall gardens, Kenya-AIGX",
      "city": "Nairobi",
      "county": "Nairobi",
      "lat": -1.3644,
      "lon": 36.8673,
      "phone": "0202000090",
      "hours": "",
      "type": "station",
      "status": "active",
      "shelf": true
    },
    {
      "name": "Cossim Githurai-Station",
      "address": "Mwihoko Road Wajukuu Plaza 1st Floor Office No 201",
      "city": "Nairobi",
      "county": "Nairobi",
      "lat": -1.1833,
      "lon": 36.9167,
      "phone": "0732314640",
      "hours": "",
      "type": "station",
      "status": "active",
      "shelf": true
    },
    {
      "name": "Cossim Kahawa West-Station",
      "address": "Kahawa west stage stalls opposite quick mart super market 1st floor stall no.F2",
      "city": "Nairobi",
      "county": "Nairobi",
      "lat": -1.1833,
      "lon": 36.9167,
      "phone": "0734289943",
      "hours": "",
      "type": "station",
      "status": "active",
      "shelf": true
    },
    {
      "name": "Cossim Kasarani-Station",
      "address": "Nyali Stalls Opposite Shell petrol station, Stall No:G16 next to Naivas Supermarket, Kasarani-Clay city/kasarani/mwiki",
      "city": "Nairobi",
      "county": "Nairobi",
      "lat": -1.2167,
      "lon": 36.9,
      "phone": "0717636392",
      "hours": "",
      "type": "station",
      "status": "active",
      "shelf": true
    },
    {
      "name": "Cossim Mtindwa-Station",
      "address": "Mtindwa road off outering road opposite KCB ATM 1stfloor",
      "city": "Nairobi",
      "county": "Nairobi",
      "lat": -1.25,
      "lon": 36.8833,
      "phone": "0713510815",
      "hours": "",
      "type": "station",
      "status": "active",
      "shelf": false
    },
    {
      "name": "Cossim Roysambu-Station",
      "address": "JEWEL COMPLEX,2ND FLOOR NEXT AGHAKAN HOSPITAL",
      "city": "Nairobi",
      "county": "Nairobi",
      "lat": -1.2167,
      "lon": 36.8833,
      "phone": "0726968623",
      "hours": "",
      "type": "station",
      "status": "active",
      "shelf": true
    },
    {
      "name": "Cossim Shujaa Mall-Station",
      "address": "Shujaa Mall ground floor along kayole spine road next to Sosian Main gate",
      "city": "Nairobi",
      "county": "Nairobi",
      "lat": -1.2833,
      "lon": 36.9167,
      "phone": "0729576615",
      "hours": "",
      "type": "station",
      "status": "active",
      "shelf": true
    },
    {
      "name": "Cossim Witeithie-Station",
      "address": "Thika road, Pegra plaza first floor, 1st floor, Room No. B1, opposite Zetech university",
      "city": "Nairobi",
      "county": "Nairobi",
      "lat": -1.1667,
      "lon": 36.9333,
      "phone": "0799920344",
      "hours": "",
      "type": "station",
      "status": "active",
      "shelf": true
    },
    {
      "name": "Cossim-Kisimani-Station",
      "address": "kisimani insider Fairdeal business centre ground floor door no G7 , kisimani stage.bombululu",
      "city": "Mombasa",
      "county": "Mombasa",
      "lat": -4.0435,
      "lon": 39.6682,
      "phone": "0702491234",
      "hours": "",
      "type": "station",
      "status": "active",
      "shelf": false
    },
    {
      "name": "Cossim Mbita-Station",
      "address": "Near mbita police station and KWF, next to Platinum Credit Ltd door No 2 from Platinum Credit Ltd",
      "city": "Mbita",
      "county": "Homa Bay",
      "lat": -0.4333,
      "lon": 34.2,
      "phone": "0791649347",
      "hours": "",
      "type": "station",
      "status": "active",
      "shelf": false
    },
    {
      "name": "Cossim Maseno-Station",
      "address": "Maseno, Jumia House, beside soda depot, opposite Mum's hotel, Kisumu, Kisumu West",
      "city": "Maseno",
      "county": "Kisumu",
      "lat": -0.0167,
      "lon": 34.6,
      "phone": "0741048453",
      "hours": "",
      "type": "station",
      "status": "active",
      "shelf": true
    },
    {
      "name": "Cossim Wote-Station",
      "address": "directly opposite St Peters optical & Dental services, Post bank,Room No.6",
      "city": "Makueni",
      "county": "Makueni",
      "lat": -1.7833,
      "lon": 37.6333,
      "phone": "0701399334",
      "hours": "",
      "type": "station",
      "status": "active",
      "shelf": false
    },
    {
      "name": "Cossim Luanda-Station",
      "address": "behind big ben plaza opposite rael's green groceries, emusire road",
      "city": "Luanda",
      "county": "Vihiga",
      "lat": 0.3333,
      "lon": 34.4667,
      "phone": "0768146906",
      "hours": "",
      "type": "station",
      "status": "active",
      "shelf": false
    },
    {
      "name": "Cossim Kisumu-Station",
      "address": "Kachok nyalenda route lakers place",
      "city": "Kisumu",
      "county": "Kisumu",
      "lat": -0.1022,
      "lon": 34.7617,
      "phone": "0701662193",
      "hours": "",
      "type": "station",
      "status": "active",
      "shelf": true
    },
    {
      "name": "Cossim Kisii-Station",
      "address": "Ouru Tower near KWFT 2nd floor",
      "city": "Kisii",
      "county": "Kisii",
      "lat": -0.6833,
      "lon": 34.7667,
      "phone": "0758095927",
      "hours": "",
      "type": "station",
      "status": "active",
      "shelf": true
    },
    {
      "name": "Cossim Kakamega-Station",
      "address": "Mega Mall 2nd floor Room No 14 Along kakamega kisumu road.",
      "city": "Kakamega",
      "county": "Kakamega",
      "lat": 0.2833,
      "lon": 34.75,
      "phone": "0708090429",
      "hours": "",
      "type": "station",
      "status": "active",
      "shelf": true
    },
    {
      "name": "Cossim Homabay-Station",
      "address": "Homabay town,garage road Odongo investment opposite club 28 next toTOBBY'S TEXTILE.",
      "city": "Homabay",
      "county": "Homa Bay",
      "lat": -0.5275,
      "lon": 34.4569,
      "phone": "0703302935",
      "hours": "",
      "type": "station",
      "status": "active",
      "shelf": false
    },
    {
      "name": "Cossim Gilgil-Station",
      "address": "Crossroads plaza ground floor ,next to Nafuu main link supermarket ,uniform center",
      "city": "Gilgil",
      "county": "Nakuru",
      "lat": -0.5,
      "lon": 36.3167,
      "phone": "0746549052",
      "hours": "",
      "type": "station",
      "status": "active",
      "shelf": true
    },
    {
      "name": "Cossim Eldoret-Station",
      "address": "Dalsa centere opposite wamogan oloo street,ground floor room 5",
      "city": "Eldoret",
      "county": "Uasin Gishu",
      "lat": 0.5143,
      "lon": 35.2698,
      "phone": "0758509225",
      "hours": "",
      "type": "station",
      "status": "active",
      "shelf": true
    },
    {
      "name": "Cossim Awasi-Station",
      "address": "Spurs driving school, Awasi room 3",
      "city": "Awasi",
      "county": "Kisumu",
      "lat": -0.1667,
      "lon": 34.9,
      "phone": "0710717139",
      "hours": "",
      "type": "station",
      "status": "active",
      "shelf": false
    }
  ]
}